[{
  "_id": {
    "$oid": "65f300000000000000000001"
  },
  "street": "Main Road, Near Cyber Towers",
  "area": "Hitech City",
  "city": "Hyderabad",
  "state": "Telangana",
  "pincode": "500081",
  "landmark": "Cyber Gateway",
  "coordinates": {
    "latitude": 17.4504,
    "longitude": 78.3808
  },
  "createdAt": "2024-03-10T09:00:00.000Z",
  "updatedAt": "2024-03-10T09:00:00.000Z"
},
{
  "_id": {
    "$oid": "65f300000000000000000002"
  },
  "street": "Outer Circle, Block B",
  "area": "Connaught Place",
  "city": "Delhi",
  "state": "Delhi",
  "pincode": "110001",
  "landmark": "Near Rajiv Chowk Metro",
  "coordinates": {
    "latitude": 28.6328,
    "longitude": 77.2197
  },
  "createdAt": "2024-03-10T09:05:00.000Z",
  "updatedAt": "2024-03-10T09:05:00.000Z"
},
{
  "_id": {
    "$oid": "65f300000000000000000003"
  },
  "street": "100 Feet Road",
  "area": "Indiranagar",
  "city": "Bangalore",
  "state": "Karnataka",
  "pincode": "560038",
  "landmark": "Near Toit Brewpub",
  "coordinates": {
    "latitude": 12.9716,
    "longitude": 77.6412
  },
  "createdAt": "2024-03-10T09:10:00.000Z",
  "updatedAt": "2024-03-10T09:10:00.000Z"
},
{
  "_id": {
    "$oid": "65f300000000000000000004"
  },
  "street": "Link Road",
  "area": "Andheri West",
  "city": "Mumbai",
  "state": "Maharashtra",
  "pincode": "400053",
  "landmark": "Opposite Infiniti Mall",
  "coordinates": {
    "latitude": 19.1136,
    "longitude": 72.8697
  },
  "createdAt": "2024-03-10T09:15:00.000Z",
  "updatedAt": "2024-03-10T09:15:00.000Z"
},
{
  "_id": {
    "$oid": "65f300000000000000000005"
  },
  "street": "MG Road",
  "area": "Adyar",
  "city": "Chennai",
  "state": "Tamil Nadu",
  "pincode": "600020",
  "landmark": "Near Adyar Depot",
  "coordinates": {
    "latitude": 13.0067,
    "longitude": 80.2578
  },
  "createdAt": "2024-03-10T09:20:00.000Z",
  "updatedAt": "2024-03-10T09:20:00.000Z"
},
{
  "_id": {
    "$oid": "65f300000000000000000006"
  },
  "street": "Allenby Road",
  "area": "Park Street",
  "city": "Kolkata",
  "state": "West Bengal",
  "pincode": "700016",
  "landmark": "Beside Flurys",
  "coordinates": {
    "latitude": 22.5488,
    "longitude": 88.3522
  },
  "createdAt": "2024-03-10T09:25:00.000Z",
  "updatedAt": "2024-03-10T09:25:00.000Z"
}]